#time;pose_pure.x;pose_pure.y;pose_pure.z;pose_pure.yaw;pose_pure.pitch;pose_pure.roll;gps_pure.x;gps_pure.y;gps_pure.z;imu_pure.dtheta;imu_pure.dphi;imu_pure.dpsi;loch_doppler_pure.vx;loch_doppler_pure.vy;loch_doppler_pure.vz;imu_pure.ddx;imu_pure.ddy;imu_pure.ddz;motorboat.transponder_gps_pure.x;motorboat.transponder_gps_pure.y;motorboat.transponder_gps_pure.z;motorboat.transponder_yaw_pure;motorboat.transponder_pitch_pure;motorboat.transponder_roll_pure;motorboat.transponder_dist;pose_noisy.x;pose_noisy.y;pose_noisy.z;pose_noisy.yaw;pose_noisy.pitch;pose_noisy.roll;gps_noisy.x;gps_noisy.y;gps_noisy.z;imu_noisy.dtheta;imu_noisy.dphi;imu_noisy.dpsi;loch_doppler_noisy.vx;loch_doppler_noisy.vy;loch_doppler_noisy.vz;imu_noisy.ddx;imu_noisy.ddy;imu_noisy.ddz;motorboat.transponder_gps_noisy.x;motorboat.transponder_gps_noisy.y;motorboat.transponder_gps_noisy.z;motorboat.transponder_yaw_noisy;motorboat.transponder_pitch_noisy;motorboat.transponder_roll_noisy;motorboat.transponder_dist
0.1;0.07833333313465118;0.0;-20.0;0.0;-0.0;0.0;0.07833333313465118;0.0;-20.0;0.0;0.0;0.0;0.19999979436397552;0.0;0.0;-2.2351741790771484e-06;0.0;9.8100004196167;-2.217048168182373;1.0121777057647705;2.064787008038138e-09;2.7262794840062643;1.5202305827259481;1.6850654367673197;19.581564842763953;0.09747169746245758;-0.20110615517461417;-20.084465882914927;0.0002031391386551019;-0.000686909045099107;-0.00031227956962648703;0.07833333313465118;0.0;-20.0;-0.0001527386048110202;2.2630680177826434e-05;0.0001743856555549428;0.19999979436397552;0.0;0.0;0.017175104469060898;0.29120394587516785;9.769705772399902;-2.217048168182373;1.0121777057647705;2.064787008038138e-09;2.7174104177344183;1.5217624814874346;1.679037185952718;19.581564842763953
0.2;0.09833333641290665;0.0;-20.0;0.0;-0.0;0.0;0.09833333641290665;0.0;-20.0;0.0;0.0;0.0;0.20000024139881134;0.0;0.0;4.470348358154297e-06;0.0;9.8100004196167;-2.2010843753814697;1.1046350002288818;2.0499195674261728e-09;2.6937494932486667;1.515620636552285;1.685264619057903;19.58703505037693;0.016184573146295997;0.02793267202049605;-20.132898540438664;0.0007773136303087028;7.908233906325e-05;0.0004084018889255079;0.09833333641290665;0.0;-20.0;-6.272071004786994e-06;0.0002622743195388466;-0.00013221250264905393;0.20000024139881134;0.0;0.0;-0.08179669082164764;0.1485007405281067;9.77286148071289;-2.2010843753814697;1.1046350002288818;2.0499195674261728e-09;2.8368933899352613;1.5385271551646207;1.6730808096426848;19.58703505037693
0.30000000000000004;0.11833333224058151;0.0;-20.0;0.0;-0.0;0.0;0.11833333224058151;0.0;-20.0;0.0;0.0;0.0;0.19999979436397552;0.0;0.0;-4.470348358154297e-06;0.0;9.8100004196167;-2.1842992305755615;1.196882724761963;2.0342871831502407e-09;2.662239585861514;1.5110234777907987;1.6854232616892746;19.592831494494103;0.13127445132503593;0.09082317693017365;-20.018017622949117;4.412968379107907e-05;0.000526692876045191;-0.00024702977837194005;0.11833333224058151;0.0;-20.0;0.0002814225445035845;7.250475027831271e-05;-0.00011364721285644919;0.20000068843364716;0.0;0.0;-0.00701527064666152;-0.04328203946352005;9.743168830871582;-2.1842992305755615;1.196882724761963;2.0342871831502407e-09;2.825919429807985;1.5331872129175717;1.685500381529188;19.592831494494103
0.4;0.13833333551883698;0.0;-20.0;0.0;-0.0;0.0;0.13833333551883698;0.0;-20.0;0.0;0.0;0.0;0.19999979436397552;0.0;0.0;0.0;0.0;9.8100004196167;-2.166691541671753;1.2889068126678467;2.0178887449873173e-09;2.6317344064415598;1.5064399826717694;1.6855413110036923;19.598949509203734;-0.2673371837795328;0.14729170192441626;-19.924174471356288;-7.809068958245729e-06;0.0005433037422394782;1.6520988950175558e-06;0.13833333551883698;0.0;-20.0;-0.0004122857062611729;0.0003689503646455705;6.963303167140111e-05;0.19999979436397552;0.0;0.0;-0.06920920312404633;0.06913743913173676;9.760096549987793;-2.166691541671753;1.2889068126678467;2.0178887449873173e-09;2.6440775681662214;1.5123390967000043;1.678144960674331;19.598949509203734
0.5;0.15833333134651184;0.0;-20.0;0.0;-0.0;0.0;0.15833333134651184;0.0;-20.0;0.0;0.0;0.0;0.19999979436397552;0.0;0.0;0.0;0.0;9.8100004196167;-2.1482605934143066;1.3806935548782349;2.0007235868035878e-09;2.6022139151477663;1.5018710047120527;1.6856187342803877;19.605384250018574;0.5414644613949418;-0.1459556564362697;-19.899993509288624;-0.0003705297690289069;0.0001666931966215088;-0.00017584905124972143;0.15833333134651184;0.0;-20.0;-2.2574005924980156e-05;-4.9255679186899215e-05;0.00015573069686070085;0.19999979436397552;0.0;0.0;-0.07286512106657028;-0.14856423437595367;9.705041885375977;-2.1482605934143066;1.3806935548782349;2.0007235868035878e-09;2.63821430907811;1.4972479615792145;1.7038027459016012;19.605384250018574
0.6000000000000001;0.1783333271741867;0.0;-20.0;0.0;-0.0;0.0;0.1783333271741867;0.0;-20.0;0.0;0.0;0.0;0.19999979436397552;0.0;0.0;0.0;0.0;9.8100004196167;-2.1290299892425537;1.4720927476882935;1.9828136910149396e-09;2.573701148257101;1.4973241802184138;1.68565669873198;19.612123388028973;0.2562190769124197;0.04242897891564696;-19.930753184803322;-0.0002965489873392395;6.509762251748295e-05;0.000597471797289299;0.1783333271741867;0.0;-20.0;-0.00010072245640913025;-4.386996806715615e-05;-4.8529116611462086e-05;0.19999979436397552;0.0;0.0;-0.0031236102804541588;-0.08728562295436859;9.807401657104492;-2.1290299892425537;1.4720927476882935;1.9828136910149396e-09;2.6011370702981456;1.4974489149681027;1.692645054298199;19.612123388028973
0.7000000000000001;0.19833333790302277;0.0;-20.0;0.0;-0.0;0.0;0.19833333790302277;0.0;-20.0;0.0;0.0;0.0;0.20000068843364716;0.0;0.0;8.940696716308594e-06;0.0;9.8100004196167;-2.108966588973999;1.5632214546203613;1.9641281934212884e-09;2.546119851610307;1.4927938391752262;1.6856535708850189;19.619166543097798;-0.010492803543993928;0.040374964342505315;-20.270619098496717;0.00048092864142011964;-3.8808944885984503e-05;6.712133096095642e-05;0.19833333790302277;0.0;-20.0;0.0001956749038072303;5.981512731523253e-05;7.422589260386303e-05;0.19999979436397552;0.0;0.0;0.06377480924129486;0.05434347689151764;9.833255767822266;-2.108966588973999;1.5632214546203613;1.9641281934212884e-09;2.425908829421076;1.4908950716266762;1.6626308880376395;19.619166543097798
0.8;0.21833333373069763;0.0;-20.0;0.0;-0.0;0.0;0.21833333373069763;0.0;-20.0;0.0;0.0;0.0;0.19999979436397552;0.0;0.0;-8.940696716308594e-06;0.0;9.8100004196167;-2.088068723678589;1.6540682315826416;1.9446655397103996e-09;2.519439953113285;1.4882807049130289;1.6856092668286573;19.626508446963623;0.06573768345868436;-0.0305680697714453;-19.906036201414054;0.00022352244368883847;-0.00027919682979810713;-0.0002641637182150061;0.21833333373069763;0.0;-20.0;9.985873475670815e-05;-0.0001458011392969638;-2.2616846763412468e-05;0.19999979436397552;0.0;0.0;0.09138939529657364;0.05115865170955658;9.727912902832031;-2.088068723678589;1.6540682315826416;1.9446655397103996e-09;2.4510728980406253;1.4843984694653263;1.67524705253808;19.626508446963623
0.9;0.2383333295583725;0.0;-20.0;0.0;-0.0;0.0;0.2383333295583725;0.0;-20.0;0.0;0.0;0.0;0.19999979436397552;0.0;0.0;0.0;0.0;9.8100004196167;-2.0663251876831055;1.744667887687683;1.9244152937858416e-09;2.4936151600632384;1.4837831998985158;1.685523233094752;19.634146733154623;0.27795083424725375;0.04472568060328041;-20.237579956677433;0.00012012073114913677;-8.3396122724697e-05;0.0004479441583677847;0.2383333295583725;0.0;-20.0;-0.0003599740448407829;0.00019830882956739515;7.972530147526413e-05;0.19999979436397552;0.0;0.0;-0.030642597004771233;0.06352952867746353;9.819014549255371;-2.0663251876831055;1.744667887687683;1.9244152937858416e-09;2.490093308450363;1.4836880358180802;1.6848188565489806;19.634146733154623
1.0;0.25833332538604736;0.0;-20.0;0.0;-0.0;0.0;0.25833332538604736;0.0;-20.0;0.0;0.0;0.0;0.19999979436397552;0.0;0.0;0.0;0.0;9.8100004196167;-2.0437474250793457;1.834957480430603;1.903388113788651e-09;2.4686307643428798;1.4793045948644101;1.685396031924481;19.642073369476954;0.3079797098422316;-0.17045903935643425;-19.866994596679493;-0.0005783595140930001;-8.955245837974894e-05;-0.00012099851008953647;0.25833332538604736;0.0;-20.0;0.00010896103776758537;-4.869775875704363e-05;-0.0001817004958866164;0.2999996840953827;0.0;0.0;-0.09475506842136383;0.03334159031510353;9.84653091430664;-2.0437474250793457;1.834957480430603;1.903388113788651e-09;2.505066224122214;1.4811405332580192;1.6918223781352197;19.642073369476954
1.1;0.2849999964237213;0.0;-20.0;0.0;-0.0;0.0;0.2849999964237213;0.0;-20.0;0.0;0.0;0.0;0.2999996840953827;0.0;0.0;0.999998927116394;0.0;9.8100004196167;-2.0176031589508057;1.9353469610214233;1.879039368546387e-09;2.4426374562981823;1.4743293336081602;1.6854218105530756;19.65176710693347;0.2627656419387407;-0.22131786702443862;-20.05019610752662;0.00024445352251456726;-0.00022110558475808568;0.0006282650301204072;0.2849999964237213;0.0;-20.0;-0.00019311146752443165;-2.082140781567432e-05;-9.050874359672889e-05;0.2999996840953827;0.0;0.0;1.1581072807312012;0.12624524533748627;9.753607749938965;-2.0176031589508057;1.9353469610214233;1.879039368546387e-09;2.3902502540115536;1.4713232936888982;1.6772351451764325;19.65176710693347
1.2000000000000002;0.3149999976158142;0.0;-20.0;0.0;-0.0;0.0;0.3149999976158142;0.0;-20.0;0.0;0.0;0.0;0.2999996840953827;0.0;0.0;0.0;0.0;9.8100004196167;-1.9896466732025146;2.0386643409729004;1.8530028622620875e-09;2.417357637975324;1.4692139666621642;1.6855226485361026;19.662450261679428;0.3488643919298262;0.08758835291189242;-19.922656989488107;4.407516418373134e-05;-0.00020862296341543174;0.0002087275576144404;0.3149999976158142;0.0;-20.0;-0.0001469610579079017;-4.2606465285643935e-05;2.8113068765378557e-05;0.2999996840953827;0.0;0.0;-0.0024007547181099653;-0.04565534368157387;9.874008178710938;-1.9896466732025146;2.0386643409729004;1.8530028622620875e-09;2.4845409333457584;1.4832033495856314;1.6841515099038717;19.662450261679428
1.3;0.3449999988079071;0.0;-20.0;0.0;-0.0;0.0;0.3449999988079071;0.0;-20.0;0.0;0.0;0.0;0.2999996840953827;0.0;0.0;0.0;0.0;9.8100004196167;-1.9613652229309082;2.139251708984375;1.8266637091812754e-09;2.393767422925571;1.4642388832918738;1.6856074492173432;19.673335253146305;0.5027721053756926;0.1456836937606049;-20.131251998442306;0.00039287658996288156;0.0006343682895160828;-0.00011583331600882065;0.3449999988079071;0.0;-20.0;-0.00010763879981823266;-4.099403304280713e-05;2.296375714649912e-05;0.39999958872795105;0.0;0.0;-0.014837606810033321;0.02436130866408348;9.754338264465332;-1.9613652229309082;2.139251708984375;1.8266637091812754e-09;2.408518192993994;1.4740749309382972;1.6781306160647362;19.673335253146305
1.4000000000000001;0.3799999952316284;0.0;-20.0;0.0;-0.0;0.0;0.3799999952316284;0.0;-20.0;0.0;0.0;0.0;0.39999958872795105;0.0;0.0;0.9999990463256836;0.0;9.8100004196167;-1.927985429763794;2.2534127235412598;1.7955763542687464e-09;2.3681579487836926;1.4585988640207361;1.685687395483777;19.68626596004456;0.5732692081917765;-0.21334101674991127;-20.114631899133023;0.00022020940144391516;-0.000624207786451385;0.0002658699455039892;0.3799999952316284;0.0;-20.0;-4.035213351016864e-05;-0.0003727169241756201;-4.658534089685418e-05;0.39999958872795105;0.0;0.0;1.022351861000061;-0.11971782892942429;9.924606323242188;-1.927985429763794;2.2534127235412598;1.7955763542687464e-09;2.408026230051371;1.4559089022750866;1.6981274217608815;19.68626596004456
1.5;0.41999998688697815;0.0;-20.0;0.0;-0.0;0.0;0.41999998688697815;0.0;-20.0;0.0;0.0;0.0;0.39999958872795105;0.0;0.0;0.0;0.0;9.8100004196167;-1.8892477750778198;2.3812415599823;1.7594991019720396e-09;2.3408468067756942;1.4522921107733318;1.6857496824042817;19.701455237749805;0.425180616072134;-0.13543103808307003;-20.10032134982577;-0.0007861854520074595;-0.0004948974820311762;-2.533105144255853e-05;0.41999998688697815;0.0;-20.0;0.00013475207379087806;1.6003923519747332e-05;0.00016423111082985997;0.4000013768672943;0.0;0.0;-0.05320029333233833;-0.17714917659759521;9.726125717163086;-1.8892477750778198;2.3812415599823;1.7594991019720396e-09;2.3870157288701215;1.458512575964832;1.6901583060066199;19.701455237749805
1.6;0.46000000834465027;0.0;-20.0;0.0;-0.0;0.0;0.46000000834465027;0.0;-20.0;0.0;0.0;0.0;0.39999958872795105;0.0;0.0;0.0;0.0;9.8100004196167;-1.8503954410552979;2.5048089027404785;1.723315046220364e-09;2.315841495309668;1.4462045932879881;1.6858063114473143;19.716906350933268;0.4922603429763598;0.26826266837225765;-20.020450237964063;0.0004937078243822541;0.0003491194858751254;0.00047701277207442335;0.46000000834465027;0.0;-20.0;-0.0002032562915701419;-0.0002681592886801809;-0.0002271618286613375;0.39999958872795105;0.0;0.0;-0.037619736045598984;0.17775632441043854;9.820636749267578;-1.8503954410552979;2.5048089027404785;1.723315046220364e-09;2.4289816161200926;1.4713777905045113;1.6857254382864655;19.716906350933268
1.7000000000000002;0.5;0.0;-20.0;0.0;-0.0;0.0;0.5;0.0;-20.0;0.0;0.0;0.0;0.39999958872795105;0.0;0.0;0.0;0.0;9.8100004196167;-1.8115200996398926;2.623967409133911;1.687109563164313e-09;2.2929725869734168;1.4403430492390423;1.6858618030733459;19.732529783295465;0.5239901160052869;-0.015980758814216345;-20.035357588487624;-0.00029807986726752;-0.00012885707681855024;-0.00038341918632498807;0.5;0.0;-20.0;0.00018608407117426395;-5.1090890337945893e-05;-7.729679964540992e-06;0.4000031650066376;0.0;0.0;-0.027366764843463898;0.1806671917438507;9.7324857711792;-1.8115200996398926;2.623967409133911;1.687109563164313e-09;2.394995452260856;1.451242641129238;1.6999041351211266;19.732529783295465
1.8;0.5400000214576721;0.0;-20.0;0.0;-0.0;0.0;0.5400000214576721;0.0;-20.0;0.0;0.0;0.0;0.39999958872795105;0.0;0.0;0.0;0.0;9.8100004196167;-1.7726068496704102;2.7389090061187744;1.6508687750160789e-09;2.272003045315378;1.4346974647768218;1.6859154250389643;19.74827016197324;0.39067708032010107;0.06739376404966288;-19.93799620298674;-0.0003650134961970812;-0.0007125690618448013;0.00032383313391592256;0.5400000214576721;0.0;-20.0;9.621042408980429e-05;1.6741445506340824e-05;0.00022378185531124473;0.39999958872795105;0.0;0.0;0.09638244658708572;0.036596402525901794;9.964731216430664;-1.7726068496704102;2.7389090061187744;1.6508687750160789e-09;2.337188371112503;1.4541934564822923;1.6830861897410427;19.74827016197324
1.9000000000000001;0.5799999833106995;0.0;-20.0;0.0;-0.0;0.0;0.5799999833106995;0.0;-20.0;0.0;0.0;0.0;0.39999958872795105;0.0;0.0;0.0;0.0;9.8100004196167;-1.7336385250091553;2.849825143814087;1.6145766945641071e-09;2.2527229123426586;1.4292578585079705;1.6859663260297157;19.76407922610587;0.4916041695361455;-0.05257535994915897;-19.964227760117648;0.0005970495347424582;-0.0006728284764951753;0.0004405035429518261;0.5799999833106995;0.0;-20.0;8.255535794887692e-05;-0.00016496625903528184;0.00028221236425451934;0.39999958872795105;0.0;0.0;-0.1500289887189865;0.03612764552235603;9.661360740661621;-1.7336385250091553;2.849825143814087;1.6145766945641071e-09;2.240369687205262;1.4240495507050683;1.687266732407968;19.76407922610587
2.0;0.6200000047683716;0.0;-20.0;0.0;-0.0;0.0;0.6200000047683716;0.0;-20.0;0.0;0.0;0.0;0.39999958872795105;0.0;0.0;0.0;0.0;9.8100004196167;-1.6945974826812744;2.956899642944336;1.5782168905076333e-09;2.234947791764146;1.4240146395007034;1.6860136415332896;19.779914512142636;0.595040968854665;0.3316695466768253;-20.234763754806735;-0.0006281108243748712;-6.378905557284518e-06;-0.00011759189494833752;0.6200000047683716;0.0;-20.0;9.547318768454716e-06;3.0933306334191e-06;4.6962075430201367e-05;0.39999958872795105;0.0;0.0;-0.23848268389701843;-0.05773015320301056;9.756529808044434;-1.6945974826812744;2.956899642944336;1.5782168905076333e-09;2.2739694054271906;1.4422935674158033;1.6799002237873917;19.779914512142636
2.1;0.6600000262260437;0.0;-20.0;0.0;-0.0;0.0;0.6600000262260437;0.0;-20.0;0.0;0.0;0.0;0.4000031650066376;0.0;0.0;3.5762786865234375e-05;0.0;9.8100004196167;-1.6554661989212036;3.0603084564208984;1.5417730425681953e-09;2.218515728347426;1.4189586229354323;1.6860565041268583;19.79573875678555;0.7885161023526358;-0.17862164446140066;-20.15143772155991;3.583351951639506e-05;-2.9277583436311698e-05;0.0002778428687781978;0.6600000262260437;0.0;-20.0;-0.00014708246453665197;2.3781998606864363e-05;-0.0002486854500602931;0.4999994933605194;0.0;0.0;-0.031293150037527084;-0.03055797703564167;9.736563682556152;-1.6554661989212036;3.0603084564208984;1.5417730425681953e-09;2.2635699605119677;1.4157716356569903;1.6997888882993002;19.79573875678555
2.2;0.70333331823349;0.0;-20.0;0.0;-0.0;0.0;0.70333331823349;0.0;-20.0;0.0;0.0;0.0;0.4999994933605194;0.0;0.0;0.9999632835388184;0.0;9.8100004196167;-1.6129698753356934;3.168410539627075;1.5021952570748454e-09;2.2020662600202616;1.4136814907698447;1.6860977988558554;19.812836424796167;0.6414477235119771;0.010936995759518196;-19.92947930218616;5.5069948646301525e-05;-0.000497386513732922;-0.00019208435142735033;0.70333331823349;0.0;-20.0;-7.090767758199945e-05;0.00016253578360192478;-2.54501082963543e-05;0.4999994933605194;0.0;0.0;0.9895469546318054;0.031828850507736206;9.749246597290039;-1.6129698753356934;3.168410539627075;1.5021952570748454e-09;2.183291682216311;1.4038060695616894;1.6886840889135626;19.812836424796167
2.3000000000000003;0.753333330154419;0.0;-20.0;0.0;-0.0;0.0;0.753333330154419;0.0;-20.0;0.0;0.0;0.0;0.4999994933605194;0.0;0.0;0.0;0.0;9.8100004196167;-1.5638353824615479;3.288954019546509;1.4564351946688703e-09;2.184556487438245;1.4078074168326975;1.6861405018131788;19.83257148277526;0.5854133907651999;-0.021730942901862584;-20.403572265276942;-9.404447912137771e-05;-0.00021957813345363202;-0.00019833639968469584;0.753333330154419;0.0;-20.0;0.00015412883658427745;7.95362502685748e-05;-0.00028536186437122524;0.4999994933605194;0.0;0.0;0.16994158923625946;0.11396127194166183;9.752853393554688;-1.5638353824615479;3.288954019546509;1.4564351946688703e-09;2.192210282524694;1.4156634564152593;1.6823137407481021;19.83257148277526
2.4000000000000004;0.8033333420753479;0.0;-20.0;0.0;-0.0;0.0;0.8033333420753479;0.0;-20.0;0.0;0.0;0.0;0.4999994933605194;0.0;0.0;0.0;0.0;9.8100004196167;-1.514805555343628;3.4048380851745605;1.4107726098444573e-09;2.1685449384124422;1.4021710694684688;1.686188368264678;19.852231401717436;0.8460442141797593;-0.07433415444172985;-20.00105189538301;8.224566602523438e-05;-0.0005165168629850944;0.0006965285254265272;0.8033333420753479;0.0;-20.0;9.957019938156009e-05;9.312852489529178e-05;7.729488424956799e-05;0.6000029444694519;0.0;0.0;0.10325554758310318;0.034418798983097076;9.753397941589355;-1.514805555343628;3.4048380851745605;1.4107726098444573e-09;2.257085072831643;1.4156821570077347;1.6981880792150763;19.852231401717436
2.5;0.8600000143051147;0.0;-20.0;0.0;-0.0;0.0;0.8600000143051147;0.0;-20.0;0.0;0.0;0.0;0.5999993681907654;0.0;0.0;0.9999987483024597;0.0;9.8100004196167;-1.4598383903503418;3.529836893081665;1.3595804482235962e-09;2.1522222742841537;1.3961035134268773;1.6862722163503663;19.874249699679325;0.6947763108279719;-0.02217348361586276;-19.949450086477988;-1.7154700489730428e-06;3.9654355966327897e-05;-0.000492756195964855;0.8600000143051147;0.0;-20.0;-0.00010935345198959112;-8.787013939581811e-05;0.0001573015470057726;0.6000029444694519;0.0;0.0;1.0563902854919434;0.03826272487640381;9.892448425292969;-1.4598383903503418;3.529836893081665;1.3595804482235962e-09;2.161731347137472;1.3879398057978145;1.6942318485955703;19.874249699679325
2.6;0.9200000166893005;0.0;-20.0;0.0;-0.0;0.0;0.9200000166893005;0.0;-20.0;0.0;0.0;0.0;0.5999993681907654;0.0;0.0;0.0;0.0;9.8100004196167;-1.4019559621810913;3.656609296798706;1.3056732361960144e-09;2.1365561252589518;1.3899631119102418;1.6863766882006164;19.89740367900956;0.9029532556937685;0.025206775364994567;-19.905440608188393;0.0002902966922174841;9.563663316854e-05;-0.00010695179419630972;0.9200000166893005;0.0;-20.0;-2.776082510536071e-05;-5.9577410866040736e-05;-0.00022602880198974162;0.6000029444694519;0.0;0.0;-0.08193393796682358;0.06253118813037872;9.793334007263184;-1.4019559621810913;3.656609296798706;1.3056732361960144e-09;2.191632584909193;1.3895312396476616;1.701127812502175;19.89740367900956
2.7;0.9800000190734863;0.0;-20.0;0.0;-0.0;0.0;0.9800000190734863;0.0;-20.0;0.0;0.0;0.0;0.5999993681907654;0.0;0.0;0.0;0.0;9.8100004196167;-1.344561219215393;3.777507781982422;1.2522202164078067e-09;2.1224399930485807;1.384120030747858;1.6865052168286758;19.920279907822028;1.2491772853819314;-0.1018649416014341;-19.92955185143351;0.0001288209102930865;5.0647008048553534e-05;-0.00011970274615113483;0.9800000190734863;0.0;-20.0;-0.00015050379442982376;-9.627083636587486e-05;0.00010664150613592938;0.6999992728233337;0.0;0.0;0.006501187104731798;0.009521410800516605;9.8726806640625;-1.344561219215393;3.777507781982422;1.2522202164078067e-09;2.1273025954880076;1.3736570196520317;1.6944155984221823;19.920279907822028
2.8000000000000003;1.0449999570846558;0.0;-20.0;0.0;-0.0;0.0;1.0449999570846558;0.0;-20.0;0.0;0.0;0.0;0.6999992728233337;0.0;0.0;0.9999990463256836;0.0;9.8100004196167;-1.2828785181045532;3.9022862911224365;1.1947737244000223e-09;2.10866945298363;1.3781029247337602;1.686668864803429;19.944705008171226;1.1269068414155767;0.1514280442226092;-20.196981887265473;0.00037413131350460247;0.0005013854006973006;0.00033153057249298365;1.0449999570846558;0.0;-20.0;-3.738293162314221e-05;0.00011957860988331959;0.00020336754096206278;0.6999992728233337;0.0;0.0;1.0201070308685303;-0.16131550073623657;9.964452743530273;-1.2828785181045532;3.9022862911224365;1.1947737244000223e-09;2.1457558557691803;1.380819263121764;1.6947629114271132;19.944705008171226
2.9000000000000004;1.1150000095367432;0.0;-20.0;0.0;-0.0;0.0;1.1150000095367432;0.0;-20.0;0.0;0.0;0.0;0.6999992728233337;0.0;0.0;0.0;0.0;9.8100004196167;-1.2165279388427734;4.031322956085205;1.1329799320947131e-09;2.09514686537219;1.3718953101602995;1.6868488956614403;19.970778327403167;1.078480493398621;0.13503914464914535;-19.95688489275554;5.511079855987921e-05;-8.365094409806625e-05;2.8003578285177166e-05;1.1150000095367432;0.0;-20.0;-9.133436105912551e-05;-0.0004442369390744716;1.2727806279144716e-05;0.6999992728233337;0.0;0.0;0.048507899045944214;0.045835599303245544;9.78088092803955;-1.2165279388427734;4.031322956085205;1.1329799320947131e-09;2.1428155869807655;1.3900668145607897;1.6878992085963145;19.970778327403167
3.0;1.184999942779541;0.0;-20.0;0.0;-0.0;0.0;1.184999942779541;0.0;-20.0;0.0;0.0;0.0;0.6999992728233337;0.0;0.0;0.0;0.0;9.8100004196167;-1.1508612632751465;4.153921604156494;1.0718230747386315e-09;2.083054163683183;1.3660117603520499;1.6870626482338076;19.996392532777072;1.0102918436393176;0.02959076960672014;-19.95605939851837;0.0002649569353568279;-0.0001708930723023699;0.00016083260685926525;1.184999942779541;0.0;-20.0;2.280350963701494e-05;0.00012042075104545802;0.0001316353736910969;0.6999992728233337;0.0;0.0;0.22591884434223175;0.0980997234582901;9.850564956665039;-1.1508612632751465;4.153921604156494;1.0718230747386315e-09;2.1094105354363886;1.380386039713664;1.6854655566440073;19.996392532777072
3.1;1.256666660308838;0.0;-20.0;0.0;-0.0;0.0;1.256666660308838;0.0;-20.0;0.0;0.0;0.0;0.7999991774559021;0.0;0.0;0.9999990463256836;0.0;9.8100004196167;-1.0843225717544556;4.27302360534668;1.0098540892400365e-09;2.0719897524710746;1.360309748814796;1.6873155916497535;20.022071912838857;1.2854367008032803;0.33521924461616365;-19.870221301771938;-0.0003888817961087031;0.00020629597111416847;-0.00038888279886495494;1.256666660308838;0.0;-20.0;-0.00031067096279002726;-0.00014315120643004775;-0.00018873883527703583;0.8000063300132751;0.0;0.0;0.9754247069358826;0.026001501828432083;9.828828811645508;-1.0843225717544556;4.27302360534668;1.0098540892400365e-09;2.1324386993401268;1.3768154896366014;1.6937872549264716;20.022071912838857
3.2;1.3366667032241821;0.0;-20.0;0.0;-0.0;0.0;1.3366667032241821;0.0;-20.0;0.0;0.0;0.0;0.7999991774559021;0.0;0.0;0.0;0.0;9.8100004196167;-1.009663701057434;4.401153564453125;9.403225975646023e-10;2.060585321914056;1.3541910070208698;1.6875790327253648;20.050431933655677;1.307313762865863;-0.08229754267344842;-20.015362015598786;-0.0003208670635108795;-0.0005643916835116963;-0.0005439986761323225;1.3366667032241821;0.0;-20.0;-3.9270351408049464e-05;-0.00017460438539274037;-0.00019228867313358933;0.7999991774559021;0.0;0.0;-0.12002267688512802;0.10926301777362823;9.659994125366211;-1.009663701057434;4.401153564453125;9.403225975646023e-10;2.068261956777159;1.3555762206604856;1.6889499447753389;20.050431933655677
3.3000000000000003;1.4166666269302368;0.0;-20.0;0.0;-0.0;0.0;1.4166666269302368;0.0;-20.0;0.0;0.0;0.0;0.7999991774559021;0.0;0.0;0.0;0.0;9.8100004196167;-0.9356226325035095;4.522907257080078;8.713664789716802e-10;2.050381313067874;1.3483919793764525;1.6878729203778304;20.078206026479446;1.307812746237062;0.060504169190824644;-19.98439474676204;-6.083636181903621e-05;-0.00020727036212104177;9.941784289525136e-05;1.4166666269302368;0.0;-20.0;3.2388030376750976e-05;-4.7761914174770936e-05;-0.00010502765508135781;0.7999991774559021;0.0;0.0;0.00601625069975853;0.09403013437986374;9.799445152282715;-0.9356226325035095;4.522907257080078;8.713664789716802e-10;2.047206684272936;1.362445823251424;1.6794704880632882;20.078206026479446
3.4000000000000004;1.496666669845581;0.0;-20.0;0.0;-0.0;0.0;1.496666669845581;0.0;-20.0;0.0;0.0;0.0;0.7999991774559021;0.0;0.0;0.0;0.0;9.8100004196167;-0.8624370694160461;4.638111591339111;8.032071119323803e-10;2.0413276806683447;1.3429188547593465;1.688208982093306;20.10526922255144;1.522926418606451;-0.17259177419564278;-19.780496357245678;0.00040282502919676577;0.00039244790487352304;3.6289796421801844e-05;1.496666669845581;0.0;-20.0;-0.00017748476238921285;2.1568212105194107e-05;-0.0003345456498209387;0.9000062346458435;0.0;0.0;0.16457830369472504;-0.08533237129449844;9.740617752075195;-0.8624370694160461;4.638111591339111;8.032071119323803e-10;2.115108278742616;1.346810619250972;1.7078258641742916;20.10526922255144
3.5;1.5816667079925537;0.0;-20.0;0.0;-0.0;0.0;1.5816667079925537;0.0;-20.0;0.0;0.0;0.0;0.8999990820884705;0.0;0.0;0.9999990463256836;0.0;9.8100004196167;-0.7862608432769775;4.752709865570068;7.32262472880052e-10;2.0330243907163985;1.337488271376901;1.688644096096079;20.133050806873975;1.7003391118681566;-0.15403617288715518;-19.929359211879074;-0.00016337517910067952;-0.00013587300361453665;-0.00024451308803502217;1.5816667079925537;0.0;-20.0;-0.0002206001809099689;-9.507943468634039e-05;0.0002396497584413737;0.8999990820884705;0.0;0.0;0.9748160243034363;0.07749763131141663;9.774968147277832;-0.7862608432769775;4.752709865570068;7.32262472880052e-10;2.065175888152289;1.335352108244654;1.6993917732492856;20.133050806873975
3.6;1.6716666221618652;0.0;-20.0;0.0;-0.0;0.0;1.6716666221618652;0.0;-20.0;0.0;0.0;0.0;0.8999990820884705;0.0;0.0;0.0;0.0;9.8100004196167;-0.705825686454773;4.86836051940918;6.573513955387966e-10;2.0250852932717347;1.3320219919168492;1.6891156964719891;20.161790698068465;1.775249930356573;-0.25053947558629536;-19.999291732161065;8.41039520247396e-06;0.00021730159549341381;-0.0004735533367470935;1.6716666221618652;0.0;-20.0;1.8856191672966816e-05;-7.338741124840453e-05;9.85481237876229e-05;0.8999990820884705;0.0;0.0;-0.09258532524108887;-0.11202508211135864;9.814794540405273;-0.705825686454773;4.86836051940918;6.573513955387966e-10;2.077902283549747;1.33530301931624;1.7033203279772928;20.161790698068465
3.7;1.7616666555404663;0.0;-20.0;0.0;-0.0;0.0;1.7616666555404663;0.0;-20.0;0.0;0.0;0.0;0.8999990820884705;0.0;0.0;0.0;0.0;9.8100004196167;-0.6255631446838379;4.978501319885254;5.82601078491507e-10;2.017916124866112;1.3268296218733313;1.6895957593782345;20.189817853648055;1.5745016895833481;0.08606968440879989;-19.981164692764292;0.0005818474474551207;-0.0007761064292573918;0.00043991796442982166;1.7616666555404663;0.0;-20.0;-0.00018065904441755265;0.00020120285626035184;9.542763291392475e-05;0.8999990820884705;0.0;0.0;-0.03590301051735878;-0.013088157400488853;9.70075511932373;-0.6255631446838379;4.978501319885254;5.82601078491507e-10;1.980450516553325;1.3303822602390938;1.6768484401586763;20.189817853648055
3.8000000000000003;1.8516666889190674;0.0;-20.0;0.0;-0.0;0.0;1.8516666889190674;0.0;-20.0;0.0;0.0;0.0;0.8999990820884705;0.0;0.0;0.0;0.0;9.8100004196167;-0.5452862977981567;5.083558559417725;5.078374387679219e-10;2.0113939779232624;1.3218893780676748;1.6900750621469947;20.217130166433144;1.615302883307098;-0.03238745989569992;-20.147911706665866;0.0006707922964778721;7.846717620721972e-06;-0.00022994923785056703;1.9450000524520874;0.0;-20.0;-0.00012993889686185867;1.5683030142099597e-05;3.5450237191980705e-05;0.9999989867210388;0.0;0.0;0.16152921319007874;0.027431588619947433;9.828668594360352;-0.5452862977981567;5.083558559417725;5.078374387679219e-10;1.9927633015991342;1.3332133197355776;1.6790833140411496;20.217130166433144
3.9000000000000004;1.9450000524520874;0.0;-20.0;0.0;-0.0;0.0;1.9450000524520874;0.0;-20.0;0.0;0.0;0.0;1.000006079673767;0.0;0.0;1.0000699758529663;0.0;9.8100004196167;-0.4616851210594177;5.1877665519714355;4.299777756067158e-10;2.0051619141872417;1.3170012950974581;1.6905547534483671;20.244738988942956;1.7763655187360163;-0.14170740663616002;-19.951958733997696;-0.0003861137804449117;0.0001461405840563615;-0.0004228724332069928;2.0450000762939453;0.0;-20.0;5.722659261664376e-05;-0.0001511197187937796;2.5068477043532766e-05;0.9999989867210388;0.0;0.0;1.0755243301391602;6.935599958524108e-05;9.824000358581543;-0.4616851210594177;5.1877665519714355;4.299777756067158e-10;1.9867702742747937;1.3156582996578712;1.6855092737945088;20.244738988942956
4.0;2.0450000762939453;0.0;-20.0;0.0;-0.0;0.0;2.0450000762939453;0.0;-20.0;0.0;0.0;0.0;0.9999989867210388;0.0;0.0;-7.092952728271484e-05;0.0;9.8100004196167;-0.3711519241333008;5.295317649841309;3.4566216555731444e-10;1.9988611120857196;1.3119693643978847;1.6910213122581923;20.273691838546814;2.0697702642339713;0.006809545584282726;-20.117900401157648;-0.00014550795066324557;0.00021711240180120094;-0.00017760019470408636;2.1449999809265137;0.0;-20.0;-0.00025908256066031754;0.00020156928803771734;-0.0002031734329648316;0.9999989867210388;0.0;0.0;-0.0011406923877075315;-0.08931142836809158;9.948559761047363;-0.3711519241333008;5.295317649841309;3.4566216555731444e-10;2.0327690709189468;1.3187037829309953;1.6983473244770335;20.301932870240236
4.1000000000000005;2.1449999809265137;0.0;-20.0;0.0;-0.0;0.0;2.246666669845581;0.0;-20.0;0.0;0.0;0.0;1.1000059843063354;0.0;0.0;0.0;0.0;9.8100004196167;-0.27991974353790283;5.39850378036499;2.606955762374241e-10;1.9929711823956864;1.3071542214719762;1.6914533698964134;20.301932870240236;2.3609265290082093;-0.19240002471400952;-19.88597403275941;-0.0004936168264630952;4.4716482732704535e-05;0.00048537579814785816;2.246666669845581;0.0;-20.0;6.270351877901703e-05;6.574922008439898e-05;-3.7853904359508306e-05;1.1000059843063354;0.0;0.0;0.866470217704773;-0.0017376523464918137;9.754437446594238;-0.27991974353790283;5.39850378036499;2.606955762374241e-10;2.0006386384640757;1.296947187631021;1.6988675204147123;20.32989234305447
4.2;2.246666669845581;0.0;-20.0;0.0;-0.0;0.0;2.3566665649414062;0.0;-20.0;0.0;0.0;0.0;1.1000059843063354;0.0;0.0;1.0000699758529663;0.0;9.8100004196167;-0.18636853992938995;5.4991326332092285;1.7356922843436706e-10;1.987345440386867;1.3024704355382777;1.6918532460524398;20.32989234305447;2.3336638030081156;-0.27322468890101725;-19.970304296800574;-0.0002592865484773112;-4.1003937106509416e-05;0.00015058665233823895;2.3566665649414062;0.0;-20.0;-4.9929589295061305e-05;-3.49084148183465e-05;0.0003478869912214577;1.0999916791915894;0.0;0.0;0.019650058820843697;0.05430297553539276;9.888147354125977;-0.18636853992938995;5.4991326332092285;1.7356922843436706e-10;2.0003820973244153;1.302766724744998;1.6959557508742236;20.359394053798976
4.3;2.3566665649414062;0.0;-20.0;0.0;-0.0;0.0;2.4666666984558105;0.0;-20.0;0.0;0.0;0.0;1.1000059843063354;0.0;0.0;-0.0001430511474609375;0.0;9.8100004196167;-0.0839247852563858;5.603930473327637;7.816104707902838e-11;1.9815387917753264;1.2976053966720469;1.6922255265116974;20.38814411214227;2.377850013847099;0.18646508232619088;-20.10232247554293;0.0002923424242042846;-0.0009077744642297666;-0.00032015813090953757;2.4666666984558105;0.0;-20.0;-7.3313726716150995e-06;-6.182646757224575e-05;0.00038826436502858996;1.1000059843063354;0.0;0.0;0.10791738331317902;-0.05297992378473282;9.894476890563965;-0.0839247852563858;5.603930473327637;7.816104707902838e-11;1.955613299107999;1.3031679809885082;1.6813991942878284;20.38814411214227
4.4;2.4666666984558105;0.0;-20.0;0.0;-0.0;0.0;2.5766665935516357;0.0;-20.0;0.0;0.0;0.0;1.0999916791915894;0.0;0.0;-0.0001430511474609375;0.0;9.8100004196167;0.019932497292757034;5.704867362976074;-1.8563584697206537e-11;1.9759533169175039;1.2929320985438453;1.6925281512583843;20.416111337680324;2.561994284145188;-0.022145198755141964;-19.668711136773187;-0.0005111712533726503;-0.00014721319946026882;-1.2719351405604e-05;2.5766665935516357;0.0;-20.0;8.657616126583889e-05;-0.00013543633394874632;0.00011353334411978722;1.0999916791915894;0.0;0.0;0.006430093664675951;-0.1514362096786499;9.803374290466309;0.019932497292757034;5.704867362976074;-1.8563584697206537e-11;1.9849524009440564;1.2955908983233824;1.694289459860785;20.416111337680324
4.5;2.68666672706604;0.0;-20.0;0.0;-0.0;0.0;2.68666672706604;0.0;-20.0;0.0;0.0;0.0;1.1000059843063354;0.0;0.0;0.0001430511474609375;0.0;9.8100004196167;0.12528902292251587;5.802063941955566;-1.1668449539925518e-10;1.9865255249099603;1.288443715946671;1.6981718428635264;20.443303757645417;2.7298141606592634;4.8507416179720875e-05;-20.045076695555398;-0.00067868802612868;-0.00029997157209979343;-0.00011202527231345973;2.68666672706604;0.0;-20.0;-1.1475930477899965e-05;-0.00034323835279792547;0.00013737494009546936;1.1000059843063354;0.0;0.0;-0.0017171248327940702;0.07553643733263016;9.840490341186523;0.12528902292251587;5.802063941955566;-1.1668449539925518e-10;1.9719530872031605;1.2887676666000238;1.6930835586769086;20.443303757645417
4.6000000000000005;2.7966666221618652;0.0;-20.0;0.0;-0.0;0.0;2.7966666221618652;0.0;-20.0;0.0;0.0;0.0;1.0999916791915894;0.0;0.0;-0.0001430511474609375;0.0;9.8100004196167;0.23250968754291534;5.895878314971924;-2.1654152082550837e-10;1.981028018861655;1.2841225734380965;1.6983085595757652;20.46976893833373;2.796675082944466;-0.1671135894356321;-20.11987434309071;0.0005418612294834232;0.000283748657695775;-0.0003001629167054074;2.7966666221618652;0.0;-20.0;-5.847357533639297e-05;5.090994818601757e-06;0.00027122392202727497;1.0999916791915894;0.0;0.0;0.18503116071224213;-0.014383682981133461;9.814276695251465;0.3423357903957367;5.986927509307861;-3.188250496943823e-10;1.9608957244212228;1.2782988884764444;1.6939872107413407;20.46976893833373
4.7;2.9166667461395264;0.0;-20.0;0.0;-0.0;0.0;2.9166667461395264;0.0;-20.0;0.0;0.0;0.0;1.1999987363815308;0.0;0.0;1.000070571899414;0.0;9.8100004196167;0.46564048528671265;6.083706855773926;-4.3366149560242206e-10;1.9768876365923347;1.2799392956725104;1.6988090020525286;20.49788816107412;2.827463800589332;0.15765735330518302;-20.01516896835286;0.0008129681438562909;-0.00041328644785293005;0.00014190106840100155;2.9166667461395264;0.0;-20.0;0.0003364589065313339;0.00015266091213561594;-0.0005989271448925138;1.1999987363815308;0.0;0.0;0.9089514017105103;-0.014801726676523685;9.715043067932129;0.46564048528671265;6.083706855773926;-4.3366149560242206e-10;1.9940976423505663;1.2806463670370232;1.7045135282609258;20.49788816107412
4.800000000000001;3.0366666316986084;0.0;-20.0;0.0;-0.0;0.0;3.0366666316986084;0.0;-20.0;0.0;0.0;0.0;1.1999987363815308;0.0;0.0;0.0;0.0;9.8100004196167;0.5930805206298828;6.178308486938477;-5.523492774273109e-10;1.9706395981672966;1.2755042051373804;1.698646451264085;20.52527740619089;2.784131489366222;0.16148061242558767;-19.947483290322644;0.00020289833729552711;-0.0001559008660953766;-7.806967279923477e-06;3.0366666316986084;0.0;-20.0;8.083745342446491e-05;8.541855640942231e-05;-8.907920710043982e-05;1.1999987363815308;0.0;0.0;0.09273438155651093;-0.23078115284442902;9.967181205749512;0.5930805206298828;6.178308486938477;-5.523492774273109e-10;1.9559140995122517;1.2806655124949795;1.6912327235585578;20.52527740619089
4.9;3.1566667556762695;0.0;-20.0;0.0;-0.0;0.0;3.1566667556762695;0.0;-20.0;0.0;0.0;0.0;1.1999987363815308;0.0;0.0;0.0;0.0;9.8100004196167;0.724730908870697;6.270621299743652;-6.749582559528733e-10;1.940767610477161;1.2669724011120576;1.6917990791708217;20.551871125299783;3.188589566953117;-0.01520893774084095;-20.221606159961844;0.0005002609807279221;0.000569172603956807;-0.00025942370092965096;3.1566667556762695;0.0;-20.0;-5.7505807490088046e-05;0.00014157869736663997;-7.892955181887373e-05;1.1999987363815308;0.0;0.0;0.0730932280421257;-0.19592739641666412;9.895184516906738;0.724730908870697;6.270621299743652;-6.749582559528733e-10;1.9589138691241712;1.2700830014006415;1.6969169686833385;20.551871125299783
5.0;3.2766666412353516;0.0;-20.0;0.0;-0.0;0.0;3.2766666412353516;0.0;-20.0;0.0;0.0;0.0;1.1999987363815308;0.0;0.0;0.0;0.0;9.8100004196167;0.8604920506477356;6.360407829284668;-8.013956720454019e-10;1.9338361197692757;1.2628901389584528;1.6910224255254354;20.577587051673117;3.239218424212206;-0.07971559093344227;-20.40908297573135;-4.1840757973998175e-05;0.00033272222521070987;4.38578661534162e-05;3.2766666412353516;0.0;-20.0;-0.00017722332268022;0.0001652694190852344;-0.0001532189198769629;1.1999987363815308;0.0;0.0;-0.06094836816191673;0.09711520373821259;9.718645095825195;0.8604920506477356;6.360407829284668;-8.013956720454019e-10;1.952358220810785;1.2561623961876969;1.700638172996632;20.577587051673117
5.1000000000000005;3.4049999713897705;0.0;-20.0;0.0;-0.0;0.0;3.4049999713897705;0.0;-20.0;0.0;0.0;0.0;1.299991488456726;0.0;0.0;0.9999275207519531;0.0;9.8100004196167;1.0099565982818604;6.453452110290527;-9.405953793617527e-10;1.9261662279269232;1.2586709144317898;1.6899809324267296;20.604069499186092;3.3630342500783037;-0.030227713953466247;-20.08296275629187;0.0008388735723205633;0.0002348060990924371;-0.0003237585250227419;3.4049999713897705;0.0;-20.0;6.065057095838711e-05;-0.00011353889567544684;-0.0001262221921933815;1.299991488456726;0.0;0.0;0.9234724640846252;0.027231691405177116;9.770561218261719;1.0099565982818604;6.453452110290527;-9.405953793617527e-10;1.9357760650234768;1.2425747644777783;1.7001888929050097;20.604069499186092
5.2;3.5350000858306885;0.0;-20.0;0.0;-0.0;0.0;3.5350000858306885;0.0;-20.0;0.0;0.0;0.0;1.3000057935714722;0.0;0.0;0.0001430511474609375;0.0;9.8100004196167;1.1655056476593018;6.5444841384887695;-1.0854617205069417e-09;1.9181741621250896;1.2545540257280647;1.6887213567187336;20.62981288291494;3.418183018613513;0.012930622795962512;-20.174432458607406;0.00024449826387282426;-0.000100877212591218;-0.0004143734761726936;3.5350000858306885;0.0;-20.0;0.00010079526691697538;-0.00019973868620581925;-0.00037535789306275547;1.3000057935714722;0.0;0.0;-0.011103453114628792;0.09473694115877151;9.82265567779541;1.1655056476593018;6.5444841384887695;-1.0854617205069417e-09;1.9204032165056981;1.2652463999187533;1.6852929802501397;20.62981288291494
5.300000000000001;3.6649999618530273;0.0;-20.0;0.0;-0.0;0.0;3.6649999618530273;0.0;-20.0;0.0;0.0;0.0;1.299991488456726;0.0;0.0;-0.0001430511474609375;0.0;9.8100004196167;1.3251436948776245;6.632089614868164;-1.2341362376488973e-09;1.9099707790798524;1.2506025458833379;1.687259708667084;20.65439273063839;3.4603127933179616;-0.20434974236684866;-20.191067489061343;0.00019675839149696395;0.0003236839355869333;-0.0003682765619998025;3.6649999618530273;0.0;-20.0;-2.0505302018136717e-05;-0.00012169294495834038;-1.9070637790719047e-05;1.299991488456726;0.0;0.0;-0.10007154196500778;0.039837878197431564;9.77965259552002;1.3251436948776245;6.632089614868164;-1.2341362376488973e-09;1.88321889797821;1.2523303534241723;1.6768859084447594;20.65439273063839
5.4;3.7950000762939453;0.0;-20.0;0.0;-0.0;0.0;3.7950000762939453;0.0;-20.0;0.0;0.0;0.0;1.3000057935714722;0.0;0.0;0.0001430511474609375;0.0;9.8100004196167;1.4887007474899292;6.716033935546875;-1.3864606129843082e-09;1.9015811248804244;1.246825892767759;1.6856041978258778;20.677730319405384;3.84005060419385;0.20883752130125233;-20.02126936565432;-0.00014674027982395366;-0.0002471317497054086;-7.666244498392898e-05;3.7950000762939453;0.0;-20.0;-7.655474473722279e-05;1.8388616808806546e-05;0.0002250043035019189;1.3000057935714722;0.0;0.0;-0.04335924610495567;-0.05675270035862923;9.737793922424316;1.4887007474899292;6.716033935546875;-1.3864606129843082e-09;1.961881219197934;1.2614838203298913;1.7018077146169326;20.677730319405384
5.5;3.924999952316284;0.0;-20.0;0.0;-0.0;0.0;3.924999952316284;0.0;-20.0;0.0;0.0;0.0;1.299991488456726;0.0;0.0;-0.0001430511474609375;0.0;9.8100004196167;1.655961275100708;6.796081066131592;-1.542234118190322e-09;1.8930339195178127;1.2432334729074266;1.6837652260740315;20.69975013875743;3.681001847762416;-0.1412592006174993;-20.177340759435015;0.000513505550981463;0.00011630375671778693;-9.341049421080728e-05;3.924999952316284;0.0;-20.0;7.163265399867669e-05;-9.50587636907585e-05;8.689747483003885e-05;1.299991488456726;0.0;0.0;0.08377194404602051;-0.07077120989561081;9.681380271911621;1.655961275100708;6.796081066131592;-1.542234118190322e-09;1.8687087050240507;1.2502109636684193;1.6723980111763441;20.69975013875743
5.6000000000000005;4.056666851043701;0.0;-20.0;0.0;-0.0;0.0;4.056666851043701;0.0;-20.0;0.0;0.0;0.0;1.4000128507614136;0.0;0.0;1.000213623046875;0.0;9.8100004196167;1.8290936946868896;6.873042583465576;-1.703476248948732e-09;1.8842166319890699;1.2397877808434403;1.6817178241535844;20.720646712595745;4.157496004077421;-0.18339585161217525;-19.89548248726339;0.00032671140623532184;6.503161243038844e-06;-0.0002951115412356543;4.056666851043701;0.0;-20.0;0.00037450200761668384;1.641846938582603e-05;4.590211028698832e-05;1.4000128507614136;0.0;0.0;1.0774304866790771;-0.0028649515006691217;9.847077369689941;1.8290936946868896;6.873042583465576;-1.703476248948732e-09;1.9135234839120447;1.229391959337294;1.696903855846823;20.720646712595745
5.7;4.196666717529297;0.0;-20.0;0.0;-0.0;0.0;4.196666717529297;0.0;-20.0;0.0;0.0;0.0;1.4000128507614136;0.0;0.0;0.0;0.0;9.8100004196167;2.016589641571045;6.950214862823486;-1.8780954569308506e-09;1.8747471638555335;1.2363408270510614;1.6793715103907094;20.741326460934992;4.2554370682409965;-0.05194073886599491;-20.179135405340716;0.0002068477878048271;-0.000475278704223688;0.0002794895346411511;4.196666717529297;0.0;-20.0;0.00035400051274336874;0.00010766886407509446;0.00027858352405019104;1.4000128507614136;0.0;0.0;0.03618144243955612;0.03312994912266731;9.852959632873535;2.016589641571045;6.950214862823486;-1.8780954569308506e-09;1.892804092015412;1.2430486456265255;1.6837474458095782;20.741326460934992
5.800000000000001;4.336666584014893;0.0;-20.0;0.0;-0.0;0.0;4.336666584014893;0.0;-20.0;0.0;0.0;0.0;1.3999842405319214;0.0;0.0;-0.000286102294921875;0.0;9.8100004196167;2.2072362899780273;7.022505283355713;-2.0556489843670533e-09;1.8652132639437282;1.2331193968037284;1.6768682291795731;20.760405902945077;4.489854574393124;0.08309068172585221;-20.10714338981147;0.00035655801508056607;0.00029479546733840906;-0.000299234165124815;4.336666584014893;0.0;-20.0;8.312832505907863e-06;-9.858446719590575e-05;-0.00014077089144848287;1.3999842405319214;0.0;0.0;0.05595681443810463;-0.16089600324630737;9.882166862487793;2.2072362899780273;7.022505283355713;-2.0556489843670533e-09;1.920992648207529;1.2468158309818878;1.6928427131881636;20.760405902945077
5.9;4.476666450500488;0.0;-20.0;0.0;-0.0;0.0;4.476666450500488;0.0;-20.0;0.0;0.0;0.0;1.3999842405319214;0.0;0.0;0.0;0.0;9.8100004196167;2.400646209716797;7.089696407318115;-2.2357760087743372e-09;1.8556550108586805;1.2301317222019899;1.6742269240386403;20.777826172637134;4.6607455363280454;-0.03192726029047129;-20.154043177098064;-0.000432177482581659;0.0004843262803561728;0.00019790184373218942;4.476666450500488;0.0;-20.0;8.966715540736914e-05;-4.806034121429548e-05;-0.00025055374135263264;1.3999842405319214;0.0;0.0;0.017198985442519188;-0.07235555350780487;9.707853317260742;2.400646209716797;7.089696407318115;-2.2357760087743372e-09;1.9047411438802393;1.2405648910101192;1.6891651635297107;20.777826172637134
6.0;4.616666793823242;0.0;-20.0;0.0;-0.0;0.0;4.616666793823242;0.0;-20.0;0.0;0.0;0.0;1.4000128507614136;0.0;0.0;0.000286102294921875;0.0;9.8100004196167;2.596654176712036;7.151669502258301;-2.418322653241489e-09;1.846078517701769;1.2273816665771862;1.6714556044498627;20.793538195004757;4.563116766795927;-0.1619288275720203;-20.23044784997199;9.23654171290391e-05;-0.00027284768625651244;0.0003733724741459816;4.616666793823242;0.0;-20.0;-8.578568667871878e-05;0.000306748814182356;0.00017667110660113394;1.4000128507614136;0.0;0.0;-0.08446747064590454;0.07654915004968643;9.884712219238281;2.596654176712036;7.151669502258301;-2.418322653241489e-09;1.870509274398981;1.2277286170313746;1.6807314575244086;20.793538195004757
6.1000000000000005;4.756666660308838;0.0;-20.0;0.0;-0.0;0.0;4.756666660308838;0.0;-20.0;0.0;0.0;0.0;1.4000128507614136;0.0;0.0;0.0;0.0;9.8100004196167;2.7949211597442627;7.208266735076904;-2.602973170340306e-09;1.8365130185289595;1.224874880118126;1.6685708357523088;20.80749759706573;4.894547740719738;-0.032595258145791006;-19.88219699466853;0.0001592741323251198;0.00010522923844980431;-0.00013328432647360608;4.756666660308838;0.0;-20.0;-0.00015356484800577164;0.00015898310812190175;0.0002556238032411784;1.4000128507614136;0.0;0.0;0.049906060099601746;-0.06336875259876251;9.738970756530762;2.7949211597442627;7.208266735076904;-2.602973170340306e-09;1.861870021094275;1.2208053500543874;1.67971661718961;20.80749759706573
6.2;4.896666526794434;0.0;-20.0;0.0;-0.0;0.0;4.896666526794434;0.0;-20.0;0.0;0.0;0.0;1.3999842405319214;0.0;0.0;-0.000286102294921875;0.0;9.8100004196167;2.995089054107666;7.259352684020996;-2.7893940490741898e-09;1.82698875881213;1.222616079624173;1.665590240382519;20.819668643557506;4.957304845734354;-0.09627016058732914;-20.098976265330847;7.487846254659241e-05;0.00013836730926655103;-0.0003214250346505266;4.896666526794434;0.0;-20.0;0.00020889421284664422;-0.00020901503739878535;-0.00013952226436231285;1.3999842405319214;0.0;0.0;-0.07945361733436584;0.04001055657863617;9.866959571838379;2.995089054107666;7.259352684020996;-2.7893940490741898e-09;1.8506163002033453;1.212838218442503;1.6778786814138316;20.819668643557506
6.300000000000001;5.0366668701171875;0.0;-20.0;0.0;-0.0;0.0;5.0366668701171875;0.0;-20.0;0.0;0.0;0.0;1.4000128507614136;0.0;0.0;0.000286102294921875;0.0;9.8100004196167;3.196787118911743;7.3048176765441895;-2.9772400100824825e-09;1.8175361865711945;1.2206089230390316;1.6625321124069004;20.830024540948138;4.97799497738177;-0.1602948328476234;-19.951645300415304;-0.00020699981621383835;-0.0003633750944423325;0.0007015215937883668;5.0366668701171875;0.0;-20.0;-7.5429656135384e-05;8.959072874858975e-05;-0.00022531664581038058;1.4000128507614136;0.0;0.0;-0.022375423461198807;-0.15686704218387604;9.82804012298584;3.196787118911743;7.3048176765441895;-2.9772400100824825e-09;1.7846436764038802;1.2065960053467184;1.653393660404334;20.830024540948138
6.4;5.176666736602783;0.0;-20.0;0.0;-0.0;0.0;5.176666736602783;0.0;-20.0;0.0;0.0;0.0;1.4000128507614136;0.0;0.0;0.0;0.0;9.8100004196167;3.3996360301971436;7.344578266143799;-3.1661577803987484e-09;1.8081855727624971;1.2188560087490863;1.6594151478112342;20.83854764518251;4.9051473781019395;0.08319849497936703;-19.98898682695821;0.00010098140740672195;2.245586956393224e-05;-0.0005094777318309689;5.176666736602783;0.0;-20.0;9.559332102071494e-05;-0.00012904869799967855;-7.362030009971932e-05;1.4000128507614136;0.0;0.0;-0.13563567399978638;0.012930537573993206;9.813342094421387;3.3996360301971436;7.344578266143799;-3.1661577803987484e-09;1.7696497402041909;1.2214370183307999;1.6440778918387218;20.83854764518251
6.5;5.316666603088379;0.0;-20.0;0.0;-0.0;0.0;5.316666603088379;0.0;-20.0;0.0;0.0;0.0;1.3999842405319214;0.0;0.0;-0.000286102294921875;0.0;9.8100004196167;3.6032493114471436;7.378576755523682;-3.355787425718404e-09;1.7989675480573248;1.2173589139501546;1.656258515881646;20.84522960765854;5.211419755376617;0.2942104786645796;-20.26921340231171;-6.50858421202027e-05;-0.00015065707536753763;0.0005424441458931441;5.316666603088379;0.0;-20.0;6.407007458619773e-05;-0.00016636560030747205;-0.00027262273943051696;1.3999842405319214;0.0;0.0;0.03440515324473381;-0.012290184386074543;9.879759788513184;3.6032493114471436;7.378576755523682;-3.355787425718404e-09;1.8597787316095404;1.2355226493016582;1.6740175154721357;20.84522960765854
6.6000000000000005;5.456666469573975;0.0;-20.0;0.0;-0.0;0.0;5.456666469573975;0.0;-20.0;0.0;0.0;0.0;1.3999842405319214;0.0;0.0;0.0;0.0;9.8100004196167;3.8072359561920166;7.406784534454346;-3.545764792889372e-09;1.7899127510052557;1.2161180618787226;1.6530816336974672;20.85007146115872;5.409842756585729;0.06268483956802211;-19.901173014276466;-0.00043627561962398615;8.84224916509126e-05;0.00016274829707955623;5.456666469573975;0.0;-20.0;0.0001414980215486139;-9.430962381884456e-05;0.0002034990320680663;1.3999842405319214;0.0;0.0;-0.11392144858837128;-0.1565784215927124;9.996150016784668;3.8072359561920166;7.406784534454346;-3.545764792889372e-09;1.802235279343388;1.217355952223647;1.6575214394649804;20.85007146115872
6.7;5.5966668128967285;0.0;-20.0;0.0;-0.0;0.0;5.5966668128967285;0.0;-20.0;0.0;0.0;0.0;1.4000128507614136;0.0;0.0;0.000286102294921875;0.0;9.8100004196167;4.011203289031982;7.42919921875;-3.735724174447341e-09;1.7810519994617504;1.2151328586781658;1.6499040692032132;20.853083641869798;5.535798044570841;-0.10064468780078438;-19.964048623719595;-0.0001745329997660144;-4.222113468717674e-05;-0.0003109978862072556;5.5966668128967285;0.0;-20.0;-0.00021453341469168663;8.085952140390873e-05;0.00012246612459421158;1.4000128507614136;0.0;0.0;0.0907190814614296;0.027547579258680344;9.850251197814941;4.011203289031982;7.42919921875;-3.735724174447341e-09;1.7834929722763626;1.206650085240334;1.652924254484592;20.853083641869798
6.800000000000001;5.736666679382324;0.0;-20.0;0.0;-0.0;0.0;5.736666679382324;0.0;-20.0;0.0;0.0;0.0;1.4000128507614136;0.0;0.0;0.0;0.0;9.8100004196167;4.214759349822998;7.445847034454346;-3.925300529061815e-09;1.7724159850635977;1.2144015956471566;1.6467453246196575;20.854285945116256;5.681574586068924;-0.11107748878878003;-19.863149979332896;0.0003117557236207038;-0.0004332388807963851;5.82138127345755e-05;5.736666679382324;0.0;-20.0;-5.985464304103516e-05;7.931808795547113e-05;-5.975558087811805e-05;1.4000128507614136;0.0;0.0;-0.00767064094543457;-0.06493087112903595;9.82880973815918;4.214759349822998;7.445847034454346;-3.925300529061815e-09;1.8285103057602714;1.2140471520718736;1.66871559259957;20.854285945116256
6.9;5.87666654586792;0.0;-20.0;0.0;-0.0;0.0;5.87666654586792;0.0;-20.0;0.0;0.0;0.0;1.3999842405319214;0.0;0.0;-0.000286102294921875;0.0;9.8100004196167;4.417515277862549;7.456781387329102;-4.11413170198216e-09;1.76403568092488;1.2139215156149907;1.6436248557352466;20.85370742200125;6.057893763008658;-0.19163102957920386;-20.22489617276158;-0.00013668949246014922;0.0001333144468781849;1.3676653916974918e-05;5.87666654586792;0.0;-20.0;0.0002272860292578116;0.00022462171909864992;0.0001271536311833188;1.3999842405319214;0.0;0.0;0.27369168400764465;0.08760813623666763;9.836246490478516;4.417515277862549;7.456781387329102;-4.11413170198216e-09;1.8088139717074454;1.2059113305751792;1.6632095473911683;20.85370742200125
7.0;6.016666889190674;0.0;-20.0;0.0;-0.0;0.0;6.016666889190674;0.0;-20.0;0.0;0.0;0.0;1.4000128507614136;0.0;0.0;0.000286102294921875;0.0;9.8100004196167;4.6190876960754395;7.462082862854004;-4.301860645483657e-09;1.755942138315639;1.2136888126393348;1.6405618772909347;20.85138620997479;6.178027107717091;-0.08103353340420569;-19.84635628662081;0.00046019300643799084;9.402554346345104e-05;-0.0005781420026769731;6.016666889190674;0.0;-20.0;0.0002124033053405583;5.322637298377231e-05;3.885855767293833e-05;1.4000128507614136;0.0;0.0;-0.059457819908857346;0.006254991050809622;9.701993942260742;4.6190876960754395;7.462082862854004;-4.301860645483657e-09;1.806473343111073;1.2158974296357687;1.6595558842856797;20.85138620997479
7.1000000000000005;6.1566667556762695;0.0;-20.0;0.0;-0.0;0.0;6.1566667556762695;0.0;-20.0;0.0;0.0;0.0;1.4000128507614136;0.0;0.0;0.0;0.0;9.8100004196167;4.819101333618164;7.461857795715332;-4.488137861358155e-09;1.7481662668112046;1.213698690912452;1.6375751557572726;20.847369295237254;5.967866438233615;0.1185727781728466;-20.22959220473201;-3.829685273768426e-05;-0.0003777407376277049;0.0003636794119839711;6.1566667556762695;0.0;-20.0;0.0002983355079777539;0.00012857116234954447;7.850945257814601e-05;1.4000128507614136;0.0;0.0;0.09104635566473007;0.10798286646604538;9.695144653320312;4.819101333618164;7.461857795715332;-4.488137861358155e-09;1.7881968707107734;1.2309388110369612;1.648740179499393;20.847369295237254
7.2;6.296666622161865;0.0;-20.0;0.0;-0.0;0.0;6.296666622161865;0.0;-20.0;0.0;0.0;0.0;1.3999842405319214;0.0;0.0;-0.000286102294921875;0.0;9.8100004196167;5.017192363739014;7.456239700317383;-4.6726245095385366e-09;1.7407389842576515;1.2139452946904608;1.63468297970845;20.841712211041717;6.1815013188594135;-0.4579316384602449;-19.893114355463045;-6.645642319261221e-05;-5.5053240705436204e-05;-0.00013067396237266565;6.296666622161865;0.0;-20.0;-9.811644849833101e-05;8.356723265023902e-05;0.00022516890021506697;1.3999842405319214;0.0;0.0;0.011174619197845459;0.010626493021845818;9.952780723571777;5.017192363739014;7.456239700317383;-4.6726245095385366e-09;1.741439790349668;1.1959305399182278;1.6384954653165906;20.841712211041717
7.300000000000001;6.436666488647461;0.0;-20.0;0.0;-0.0;0.0;6.436666488647461;0.0;-20.0;0.0;0.0;0.0;1.3999842405319214;0.0;0.0;0.0;0.0;9.8100004196167;5.213008880615234;7.445385456085205;-4.854992852187934e-09;1.7336912195749932;1.2144218653142727;1.6319030353472803;20.834478677382563;6.559423070985653;0.026557960958197725;-19.737776497633366;1.481110351716853e-05;-0.00023668485237321758;-0.00010349005268419769;6.436666488647461;0.0;-20.0;8.358047125511803e-06;-0.00012326533033046871;-0.000161395626491867;1.3999842405319214;0.0;0.0;0.1970748007297516;-0.11826030910015106;9.789750099182129;5.213008880615234;7.445385456085205;-4.854992852187934e-09;1.7867395734767102;1.198112445778859;1.6563480930585373;20.834478677382563
7.4;6.576666831970215;0.0;-20.0;0.0;-0.0;0.0;6.576666831970215;0.0;-20.0;0.0;0.0;0.0;1.4000128507614136;0.0;0.0;0.000286102294921875;0.0;9.8100004196167;5.406484127044678;7.429452419281006;-5.035180716816967e-09;1.7270188175395296;1.2151217337282294;1.6292388337134645;20.825717101257887;6.441922466324121;-0.15606393519414313;-19.95410376583372;-0.00013957008929862662;-0.0006947416661094723;0.0002560184925313296;6.576666831970215;0.0;-20.0;-0.00022421486210078;-4.624171197065152e-05;-8.059441461227834e-05;1.4000128507614136;0.0;0.0;0.03925878182053566;-0.21907585859298706;9.934036254882812;5.406484127044678;7.429452419281006;-5.035180716816967e-09;1.7392189140362617;1.2080764823466676;1.6352365540848905;20.825717101257887
7.5;6.7166666984558105;0.0;-20.0;0.0;-0.0;0.0;6.7166666984558105;0.0;-20.0;0.0;0.0;0.0;1.4000128507614136;0.0;0.0;0.0;0.0;9.8100004196167;5.6005144119262695;7.408277988433838;-5.215885501286266e-09;1.72033447681972;1.2160523969806432;1.626546111747397;20.815205579217057;6.586713980244517;0.301570576155707;-20.090656516109295;-9.83396633501425e-05;-0.0007706547716968488;-0.0002628889279485574;6.7166666984558105;0.0;-20.0;0.00018616953457240015;-0.00012532700202427804;1.681886897131335e-05;1.4000128507614136;0.0;0.0;0.08541173487901688;-0.042478326708078384;9.741952896118164;5.6005144119262695;7.408277988433838;-5.215885501286266e-09;1.7337284846795653;1.2332664686927268;1.6284265608056214;20.815205579217057
7.6000000000000005;6.856666564941406;0.0;-20.0;0.0;-0.0;0.0;6.856666564941406;0.0;-20.0;0.0;0.0;0.0;1.3999842405319214;0.0;0.0;-0.000286102294921875;0.0;9.8100004196167;5.794949054718018;7.38187837600708;-5.396966873405518e-09;1.713644254779654;1.2172136177803423;1.623832419187848;20.80297514218415;6.702558011659962;0.019125833212550347;-20.03517004380363;-0.00027406670318747765;-6.025854465328194e-05;-0.0009380189310055349;6.856666564941406;0.0;-20.0;0.00019769145001191646;0.0003969428944401443;-0.0005619604489766061;1.3999842405319214;0.0;0.0;-0.1661621332168579;0.11893618851900101;9.877607345581055;5.794949054718018;7.38187837600708;-5.396966873405518e-09;1.7298015770322555;1.2137361139521239;1.6305470730601785;20.80297514218415
7.7;6.996666431427002;0.0;-20.0;0.0;-0.0;0.0;6.996666431427002;0.0;-20.0;0.0;0.0;0.0;1.3999842405319214;0.0;0.0;0.0;0.0;9.8100004196167;5.989190578460693;7.350350379943848;-5.57786838939478e-09;1.7070125462980668;1.2186017222982544;1.6211275760595296;20.789109140259562;7.127092868454302;-0.18041773343530795;-20.151137517013915;-0.0003276835605662546;0.000363297469419685;0.00014101323537353113;6.996666431427002;0.0;-20.0;-0.00024114172265399247;-0.00023350000265054405;0.00018865162564907223;1.3999842405319214;0.0;0.0;0.09252642840147018;-0.08903589844703674;9.989262580871582;5.989190578460693;7.350350379943848;-5.57786838939478e-09;1.7756860789769309;1.2132450039091511;1.6482791840563031;20.789109140259562
7.800000000000001;7.144999980926514;0.0;-20.0;0.0;-0.0;0.0;7.144999980926514;0.0;-20.0;0.0;0.0;0.0;1.5000056028366089;0.0;0.0;1.000213623046875;0.0;9.8100004196167;6.1937971115112305;7.311718463897705;-5.768423072538553e-09;1.700162714145374;1.2203045284981964;1.618320659040177;20.772828789418714;7.041003926794738;-0.01767924682064639;-20.21669136835259;0.00039792302912463977;-0.0002189619807265726;0.0002884529320850445;7.144999980926514;0.0;-20.0;8.345645619556308e-05;3.858246054733172e-05;0.00010328919597668573;1.5000056028366089;0.0;0.0;0.8732386827468872;-0.0001308893843088299;9.877775192260742;6.1937971115112305;7.311718463897705;-5.768423072538553e-09;1.7185794213683936;1.2210710228004968;1.625037949570066;20.772828789418714
7.9;7.295000076293945;0.0;-20.0;0.0;-0.0;0.0;7.295000076293945;0.0;-20.0;0.0;0.0;0.0;1.5000056028366089;0.0;0.0;0.0;0.0;9.8100004196167;6.398458003997803;7.2677483558654785;-5.959028381852249e-09;1.6935352293390462;1.2222452125687289;1.6155934403449317;20.754959825142247;7.568710942893942;0.04197886551492532;-19.763215860226882;5.3858643920274216e-05;-0.000746767812811999;-4.386880886223666e-05;7.295000076293945;0.0;-20.0;-0.00020849266729783267;-9.233650052919984e-05;-0.00032507357536815107;1.5000056028366089;0.0;0.0;0.14885775744915009;0.11903905123472214;9.668256759643555;6.398458003997803;7.2677483558654785;-5.959028381852249e-09;1.7689396990026724;1.212915441423825;1.6457436685699325;20.754959825142247
8.0;7.445000171661377;0.0;-20.0;0.0;-0.0;0.0;7.445000171661377;0.0;-20.0;0.0;0.0;0.0;1.5000056028366089;0.0;0.0;0.0;0.0;9.8100004196167;6.600310325622559;7.21910285949707;-6.147018005719929e-09;1.6872742882907719;1.2243954450444388;1.6130057339935506;20.735798623392675;7.51169010291893;0.06076943636799872;-20.217274276068018;0.00012432465434405652;-9.351687234859915e-05;0.0001590115394635982;7.445000171661377;0.0;-20.0;-0.0003592470020521432;0.00018348358571529388;-5.1882798288716e-05;1.5000056028366089;0.0;0.0;-0.07387182861566544;0.022826459258794785;9.779302597045898;6.600310325622559;7.21910285949707;-6.147018005719929e-09;1.7978732412691971;1.235237157561406;1.6512050746174145;20.735798623392675
